[
 {
  "station_id": "portillo:CL:ERA5",
  "slug": "portillo",
  "name": "Portillo",
  "resort": "Ski Portillo",
  "region": "Aconcagua, Chile",
  "state": "CL",
  "elevation_ft": 9450,
  "latitude": -32.836,
  "longitude": -70.129,
  "league": "southern",
  "truth_source": null
 },
 {
  "station_id": "valle-nevado:CL:ERA5",
  "slug": "valle-nevado",
  "name": "Valle Nevado",
  "resort": "Valle Nevado / Tres Valles",
  "region": "Santiago Andes, Chile",
  "state": "CL",
  "elevation_ft": 9925,
  "latitude": -33.356,
  "longitude": -70.249,
  "league": "southern",
  "truth_source": null
 },
 {
  "station_id": "nevados-chillan:CL:ERA5",
  "slug": "nevados-chillan",
  "name": "Nevados de Chill\u00e1n",
  "resort": "Nevados de Chill\u00e1n",
  "region": "\u00d1uble Andes, Chile",
  "state": "CL",
  "elevation_ft": 6070,
  "latitude": -36.908,
  "longitude": -71.477,
  "league": "southern",
  "truth_source": null
 },
 {
  "station_id": "corralco:CL:ERA5",
  "slug": "corralco",
  "name": "Corralco",
  "resort": "Corralco / Lonquimay",
  "region": "Araucan\u00eda, Chile",
  "state": "CL",
  "elevation_ft": 5900,
  "latitude": -38.427,
  "longitude": -71.572,
  "league": "southern",
  "truth_source": null
 },
 {
  "station_id": "antillanca:CL:ERA5",
  "slug": "antillanca",
  "name": "Antillanca",
  "resort": "Antillanca",
  "region": "Los Lagos, Chile",
  "state": "CL",
  "elevation_ft": 3940,
  "latitude": -40.771,
  "longitude": -72.153,
  "league": "southern",
  "truth_source": null
 },
 {
  "station_id": "las-lenas:AR:ERA5",
  "slug": "las-lenas",
  "name": "Las Le\u00f1as",
  "resort": "Las Le\u00f1as",
  "region": "Mendoza Andes, Argentina",
  "state": "AR",
  "elevation_ft": 8860,
  "latitude": -35.145,
  "longitude": -70.081,
  "league": "southern",
  "truth_source": null
 },
 {
  "station_id": "penitentes:AR:ERA5",
  "slug": "penitentes",
  "name": "Penitentes",
  "resort": "Penitentes",
  "region": "Mendoza Andes, Argentina",
  "state": "AR",
  "elevation_ft": 9190,
  "latitude": -32.859,
  "longitude": -69.842,
  "league": "southern",
  "truth_source": null
 },
 {
  "station_id": "caviahue:AR:ERA5",
  "slug": "caviahue",
  "name": "Caviahue",
  "resort": "Caviahue",
  "region": "Neuqu\u00e9n Andes, Argentina",
  "state": "AR",
  "elevation_ft": 5900,
  "latitude": -37.876,
  "longitude": -71.037,
  "league": "southern",
  "truth_source": null
 },
 {
  "station_id": "chapelco:AR:ERA5",
  "slug": "chapelco",
  "name": "Chapelco",
  "resort": "Chapelco",
  "region": "Neuqu\u00e9n Andes, Argentina",
  "state": "AR",
  "elevation_ft": 5580,
  "latitude": -40.203,
  "longitude": -71.303,
  "league": "southern",
  "truth_source": null
 },
 {
  "station_id": "catedral:AR:ERA5",
  "slug": "catedral",
  "name": "Cerro Catedral",
  "resort": "Catedral Alta Patagonia",
  "region": "Bariloche, Argentina",
  "state": "AR",
  "elevation_ft": 5910,
  "latitude": -41.17,
  "longitude": -71.443,
  "league": "southern",
  "truth_source": null
 },
 {
  "station_id": "castor:AR:ERA5",
  "slug": "castor",
  "name": "Cerro Castor",
  "resort": "Cerro Castor",
  "region": "Tierra del Fuego, Argentina",
  "state": "AR",
  "elevation_ft": 1970,
  "latitude": -54.723,
  "longitude": -68.121,
  "league": "southern",
  "truth_source": null
 },
 {
  "station_id": "whakapapa:NZ:ERA5",
  "slug": "whakapapa",
  "name": "Whakapapa",
  "resort": "Whakapapa / Ruapehu",
  "region": "North Island, NZ",
  "state": "NZ",
  "elevation_ft": 6560,
  "latitude": -39.253,
  "longitude": 175.561,
  "league": "southern",
  "truth_source": null
 },
 {
  "station_id": "turoa:NZ:ERA5",
  "slug": "turoa",
  "name": "T\u016broa",
  "resort": "T\u016broa / Ruapehu",
  "region": "North Island, NZ",
  "state": "NZ",
  "elevation_ft": 6560,
  "latitude": -39.306,
  "longitude": 175.529,
  "league": "southern",
  "truth_source": null
 },
 {
  "station_id": "mt-hutt:NZ:ERA5",
  "slug": "mt-hutt",
  "name": "Mt Hutt",
  "resort": "Mt Hutt",
  "region": "Canterbury, NZ",
  "state": "NZ",
  "elevation_ft": 6230,
  "latitude": -43.471,
  "longitude": 171.53,
  "league": "southern",
  "truth_source": null
 },
 {
  "station_id": "remarkables:NZ:ERA5",
  "slug": "remarkables",
  "name": "The Remarkables",
  "resort": "The Remarkables",
  "region": "Otago, NZ",
  "state": "NZ",
  "elevation_ft": 6230,
  "latitude": -45.054,
  "longitude": 168.812,
  "league": "southern",
  "truth_source": null
 },
 {
  "station_id": "coronet-peak:NZ:ERA5",
  "slug": "coronet-peak",
  "name": "Coronet Peak",
  "resort": "Coronet Peak",
  "region": "Otago, NZ",
  "state": "NZ",
  "elevation_ft": 4920,
  "latitude": -44.921,
  "longitude": 168.734,
  "league": "southern",
  "truth_source": null
 },
 {
  "station_id": "cardrona:NZ:ERA5",
  "slug": "cardrona",
  "name": "Cardrona",
  "resort": "Cardrona",
  "region": "Otago, NZ",
  "state": "NZ",
  "elevation_ft": 5580,
  "latitude": -44.874,
  "longitude": 168.948,
  "league": "southern",
  "truth_source": null
 },
 {
  "station_id": "treble-cone:NZ:ERA5",
  "slug": "treble-cone",
  "name": "Treble Cone",
  "resort": "Treble Cone",
  "region": "Otago, NZ",
  "state": "NZ",
  "elevation_ft": 5580,
  "latitude": -44.633,
  "longitude": 168.897,
  "league": "southern",
  "truth_source": null
 },
 {
  "station_id": "perisher:AU:ERA5",
  "slug": "perisher",
  "name": "Perisher",
  "resort": "Perisher",
  "region": "Snowy Mountains, AU",
  "state": "AU",
  "elevation_ft": 5910,
  "latitude": -36.405,
  "longitude": 148.41,
  "league": "southern",
  "truth_source": null
 },
 {
  "station_id": "thredbo:AU:ERA5",
  "slug": "thredbo",
  "name": "Thredbo",
  "resort": "Thredbo",
  "region": "Snowy Mountains, AU",
  "state": "AU",
  "elevation_ft": 6230,
  "latitude": -36.504,
  "longitude": 148.29,
  "league": "southern",
  "truth_source": null
 },
 {
  "station_id": "falls-creek:AU:ERA5",
  "slug": "falls-creek",
  "name": "Falls Creek",
  "resort": "Falls Creek",
  "region": "Victorian Alps, AU",
  "state": "AU",
  "elevation_ft": 5410,
  "latitude": -36.866,
  "longitude": 147.278,
  "league": "southern",
  "truth_source": null
 },
 {
  "station_id": "hotham:AU:ERA5",
  "slug": "hotham",
  "name": "Mt Hotham",
  "resort": "Mt Hotham",
  "region": "Victorian Alps, AU",
  "state": "AU",
  "elevation_ft": 5740,
  "latitude": -36.976,
  "longitude": 147.135,
  "league": "southern",
  "truth_source": null
 },
 {
  "station_id": "mt-buller:AU:ERA5",
  "slug": "mt-buller",
  "name": "Mt Buller",
  "resort": "Mt Buller",
  "region": "Victorian Alps, AU",
  "state": "AU",
  "elevation_ft": 5250,
  "latitude": -37.146,
  "longitude": 146.447,
  "league": "southern",
  "truth_source": null
 }
]